{
  "type": "FeatureCollection",
  "features": [
    {
      "id": 1,
      "type": "Feature",
      "geometry": {
        "type": "Point",
        "coordinates": [121.4737, 31.2304]
      },
      "properties": {
        "id": 1,
        "name": "上海文化中心",
        "type": "文化服务",
        "time": "2022-12-12 12:12:12",
        "com": "新华街道",
        "lon": 121.4737,
        "lat": 31.2304
      }
    },
    {
      "id": 2,
      "type": "Feature",
      "geometry": {
        "type": "Point",
        "coordinates": [121.5096, 31.2457]
      },
      "properties": {
        "id": 2,
        "name": "上海市图书馆",
        "type": "文化服务",
        "time": "2024-4-16 21:36:06",
        "com": "淮海中路",
        "lon": 121.5096,
        "lat": 31.2457
      }
    },
    {
      "id": 3,
      "type": "Feature",
      "geometry": {
        "type": "Point",
        "coordinates": [121.4619, 31.2412]
      },
      "properties": {
        "id": 3,
        "name": "浦东图书馆",
        "type": "文化服务",
        "time": "2023-12-23 09:30:00",
        "com": "前程路",
        "lon": 121.4619,
        "lat": 31.2412
      }
    },
    {
      "id": 4,
      "type": "Feature",
      "geometry": {
        "type": "Point",
        "coordinates": [121.4921, 31.2174]
      },
      "properties": {
        "id": 4,
        "name": "长宁图书馆",
        "type": "文化服务",
        "time": "2023-04-28 21:03:09",
        "com": "天山路",
        "lon": 121.4921,
        "lat": 31.2174
      }
    },
    {
      "id": 5,
      "type": "Feature",
      "geometry": {
        "type": "Point",
        "coordinates": [121.4387, 31.2284]
      },
      "properties": {
        "id": 5,
        "name": "上海市博物馆",
        "type": "文化服务",
        "time": "2022-8-04 14:30:00",
        "com": "人民大道",
        "lon": 121.4387,
        "lat": 31.2284
      }
    },
    {
      "id": 6,
      "type": "Feature",
      "geometry": {
        "type": "Point",
        "coordinates": [121.5023, 31.2105]
      },
      "properties": {
        "id": 6,
        "name": "上海市自然历史博物馆",
        "type": "文化服务",
        "time": "2023-02-15 10:55:35",
        "com": "北京西路",
        "lon": 121.5023,
        "lat": 31.2105
      }
    },
    {
      "id": 7,
      "type": "Feature",
      "geometry": {
        "type": "Point",
        "coordinates": [121.4623, 31.2556]
      },
      "properties": {
        "id": 7,
        "name": "上海世博会博物馆",
        "type": "文化服务",
        "time": "2024-03-09 17:15:34",
        "com": "蒙自路",
        "lon": 121.4623,
        "lat": 31.2556
      }
    },
    {
      "id": 8,
      "type": "Feature",
      "geometry": {
        "type": "Point",
        "coordinates": [121.5278, 31.2354]
      },
      "properties": {
        "id": 8,
        "name": "黄浦剧场",
        "type": "文化服务",
        "time": "2023-10-03 20:30:05",
        "com": "北京东路",
        "lon": 121.5278,
        "lat": 31.2354
      }
    },
    {
      "id": 9,
      "type": "Feature",
      "geometry": {
        "type": "Point",
        "coordinates": [121.4486, 31.2116]
      },
      "properties": {
        "id": 9,
        "name": "长江剧场",
        "type": "文化服务",
        "time": "2023-07-25 14:00:36",
        "com": "黄河路",
        "lon": 121.4486,
        "lat": 31.2116
      }
    },
    {
      "id": 10,
      "type": "Feature",
      "geometry": {
        "type": "Point",
        "coordinates": [121.4741, 31.1946]
      },
      "properties": {
        "id": 10,
        "name": "万达影院",
        "type": "文化服务",
        "time": "2024-04-13 21:30:12",
        "com": "新华路",
        "lon": 121.4741,
        "lat": 31.1946
      }
    }
  ]
}
